<?xml version="1.0" encoding="UTF-8" standalone="no"?>
<geonames style="LONG">
<totalResultsCount>447</totalResultsCount>
<geoname>
<toponymName>Birmingham</toponymName>
<name>Birmingham</name>
<lat>52.48142</lat>
<lng>-1.89983</lng>
<geonameId>2655603</geonameId>
<countryCode>GB</countryCode>
<countryName>United Kingdom</countryName>
<fcl>P</fcl>
<fcode>PPLA2</fcode>
<fclName>city, village,...</fclName>
<fcodeName>seat of a second-order administrative division</fcodeName>
<population>984333</population>
</geoname>
<geoname>
<toponymName>Birmingham</toponymName>
<name>Birmingham</name>
<lat>33.52066</lat>
<lng>-86.80249</lng>
<geonameId>4049979</geonameId>
<countryCode>US</countryCode>
<countryName>United States</countryName>
<fcl>P</fcl>
<fcode>PPLA2</fcode>
<fclName>city, village,...</fclName>
<fcodeName>seat of a second-order administrative division</fcodeName>
<population>212237</population>
</geoname>
<geoname>
<toponymName>Birmingham Airport</toponymName>
<name>Birmingham Airport</name>
<lat>52.45386</lat>
<lng>-1.74803</lng>
<geonameId>6296572</geonameId>
<countryCode>GB</countryCode>
<countryName>United Kingdom</countryName>
<fcl>S</fcl>
<fcode>AIRP</fcode>
<fclName>spot, building, farm</fclName>
<fcodeName>airport</fcodeName>
<population/>
</geoname>
<geoname>
<toponymName>City and Borough of Birmingham</toponymName>
<name>Birmingham</name>
<lat>52.48048</lat>
<lng>-1.89823</lng>
<geonameId>3333125</geonameId>
<countryCode>GB</countryCode>
<countryName>United Kingdom</countryName>
<fcl>A</fcl>
<fcode>ADM2</fcode>
<fclName>country, state, region,...</fclName>
<fcodeName>second-order administrative division</fcodeName>
<population/>
</geoname>
<geoname>
<toponymName>Sutton Coldfield</toponymName>
<name>Sutton Coldfield</name>
<lat>52.56667</lat>
<lng>-1.81667</lng>
<geonameId>2636486</geonameId>
<countryCode>GB</countryCode>
<countryName>United Kingdom</countryName>
<fcl>P</fcl>
<fcode>PPL</fcode>
<fclName>city, village,...</fclName>
<fcodeName>populated place</fcodeName>
<population>107030</population>
</geoname>
<geoname>
<toponymName>New Birmingham</toponymName>
<name>New Birmingham</name>
<lat>52.61583</lat>
<lng>-7.64028</lng>
<geonameId>2962294</geonameId>
<countryCode>IE</countryCode>
<countryName>Ireland</countryName>
<fcl>P</fcl>
<fcode>PPL</fcode>
<fclName>city, village,...</fclName>
<fcodeName>populated place</fcodeName>
<population/>
</geoname>
<geoname>
<toponymName>Birmingham–Shuttlesworth International Airport</toponymName>
<name>Birmingham–Shuttlesworth International Airport</name>
<lat>33.56166</lat>
<lng>-86.75254</lng>
<geonameId>4049999</geonameId>
<countryCode>US</countryCode>
<countryName>United States</countryName>
<fcl>S</fcl>
<fcode>AIRP</fcode>
<fclName>spot, building, farm</fclName>
<fcodeName>airport</fcodeName>
<population/>
</geoname>
<geoname>
<toponymName>Birmingham Municipal Airport-North</toponymName>
<name>Birmingham Municipal Airport-North</name>
<lat>33.5676</lat>
<lng>-86.74443</lng>
<geonameId>4050001</geonameId>
<countryCode>US</countryCode>
<countryName>United States</countryName>
<fcl>S</fcl>
<fcode>AIRP</fcode>
<fclName>spot, building, farm</fclName>
<fcodeName>airport</fcodeName>
<population/>
</geoname>
<geoname>
<toponymName>Birmingham</toponymName>
<name>Birmingham</name>
<lat>42.5467</lat>
<lng>-83.21132</lng>
<geonameId>4986172</geonameId>
<countryCode>US</countryCode>
<countryName>United States</countryName>
<fcl>P</fcl>
<fcode>PPL</fcode>
<fclName>city, village,...</fclName>
<fcodeName>populated place</fcodeName>
<population>20103</population>
</geoname>
<geoname>
<toponymName>Birmingham Lake</toponymName>
<name>Birmingham Lake</name>
<lat>50.52717</lat>
<lng>-92.41983</lng>
<geonameId>5901868</geonameId>
<countryCode>CA</countryCode>
<countryName>Canada</countryName>
<fcl>H</fcl>
<fcode>LK</fcode>
<fclName>stream, lake, ...</fclName>
<fcodeName>lake</fcodeName>
<population/>
</geoname>
<geoname>
<toponymName>Birmingham Gardens</toponymName>
<name>Birmingham Gardens</name>
<lat>-32.89368</lat>
<lng>151.69009</lng>
<geonameId>8348426</geonameId>
<countryCode>AU</countryCode>
<countryName>Australia</countryName>
<fcl>P</fcl>
<fcode>PPLX</fcode>
<fclName>city, village,...</fclName>
<fcodeName>section of populated place</fcodeName>
<population/>
</geoname>
<geoname>
<toponymName>New Frankley in Birmingham</toponymName>
<name>New Frankley in Birmingham</name>
<lat>52.40556</lat>
<lng>-2.01573</lng>
<geonameId>7300538</geonameId>
<countryCode>GB</countryCode>
<countryName>United Kingdom</countryName>
<fcl>A</fcl>
<fcode>ADM3</fcode>
<fclName>country, state, region,...</fclName>
<fcodeName>third-order administrative division</fcodeName>
<population/>
</geoname>
<geoname>
<toponymName>Acocks Green</toponymName>
<name>Acocks Green</name>
<lat>52.45</lat>
<lng>-1.81667</lng>
<geonameId>2657703</geonameId>
<countryCode>GB</countryCode>
<countryName>United Kingdom</countryName>
<fcl>P</fcl>
<fcode>PPLX</fcode>
<fclName>city, village,...</fclName>
<fcodeName>section of populated place</fcodeName>
<population>26635</population>
</geoname>
<geoname>
<toponymName>Bartley Green</toponymName>
<name>Bartley Green</name>
<lat>52.43532</lat>
<lng>-1.99707</lng>
<geonameId>7302130</geonameId>
<countryCode>GB</countryCode>
<countryName>United Kingdom</countryName>
<fcl>P</fcl>
<fcode>PPL</fcode>
<fclName>city, village,...</fclName>
<fcodeName>populated place</fcodeName>
<population>25473</population>
</geoname>
<geoname>
<toponymName>North Birmingham</toponymName>
<name>North Birmingham</name>
<lat>33.55372</lat>
<lng>-86.81888</lng>
<geonameId>4080397</geonameId>
<countryCode>US</countryCode>
<countryName>United States</countryName>
<fcl>P</fcl>
<fcode>PPL</fcode>
<fclName>city, village,...</fclName>
<fcodeName>populated place</fcodeName>
<population/>
</geoname>
<geoname>
<toponymName>Birmingham</toponymName>
<name>Birmingham</name>
<lat>39.16584</lat>
<lng>-94.45134</lng>
<geonameId>4377224</geonameId>
<countryCode>US</countryCode>
<countryName>United States</countryName>
<fcl>P</fcl>
<fcode>PPL</fcode>
<fclName>city, village,...</fclName>
<fcodeName>populated place</fcodeName>
<population>183</population>
</geoname>
<geoname>
<toponymName>Birmingham</toponymName>
<name>Birmingham</name>
<lat>40.87891</lat>
<lng>-91.94712</lng>
<geonameId>4848666</geonameId>
<countryCode>US</countryCode>
<countryName>United States</countryName>
<fcl>P</fcl>
<fcode>PPL</fcode>
<fclName>city, village,...</fclName>
<fcodeName>populated place</fcodeName>
<population>448</population>
</geoname>
<geoname>
<toponymName>Birmingham</toponymName>
<name>Birmingham</name>
<lat>40.93782</lat>
<lng>-86.10944</lng>
<geonameId>4918152</geonameId>
<countryCode>US</countryCode>
<countryName>United States</countryName>
<fcl>P</fcl>
<fcode>PPL</fcode>
<fclName>city, village,...</fclName>
<fcodeName>populated place</fcodeName>
<population/>
</geoname>
<geoname>
<toponymName>Birmingham</toponymName>
<name>Birmingham</name>
<lat>40.64784</lat>
<lng>-78.19529</lng>
<geonameId>5180627</geonameId>
<countryCode>US</countryCode>
<countryName>United States</countryName>
<fcl>P</fcl>
<fcode>PPL</fcode>
<fclName>city, village,...</fclName>
<fcodeName>populated place</fcodeName>
<population>90</population>
</geoname>
<geoname>
<toponymName>Birmingham Bay</toponymName>
<name>Birmingham Bay</name>
<lat>73.38476</lat>
<lng>-95.63403</lng>
<geonameId>5901864</geonameId>
<countryCode>CA</countryCode>
<countryName>Canada</countryName>
<fcl>H</fcl>
<fcode>BAY</fcode>
<fclName>stream, lake, ...</fclName>
<fcodeName>bay</fcodeName>
<population/>
</geoname>
<geoname>
<toponymName>Birmingham Place</toponymName>
<name>Birmingham Place</name>
<lat>-32.8818</lat>
<lng>151.6846</lng>
<geonameId>8150156</geonameId>
<countryCode>AU</countryCode>
<countryName>Australia</countryName>
<fcl>L</fcl>
<fcode>PRK</fcode>
<fclName>parks,area, ...</fclName>
<fcodeName>park</fcodeName>
<population/>
</geoname>
<geoname>
<toponymName>Birmingham Hill</toponymName>
<name>Birmingham Hill</name>
<lat>-29.26119</lat>
<lng>121.4492</lng>
<geonameId>8856238</geonameId>
<countryCode>AU</countryCode>
<countryName>Australia</countryName>
<fcl>T</fcl>
<fcode>HLL</fcode>
<fclName>mountain,hill,rock,... </fclName>
<fcodeName>hill</fcodeName>
<population/>
</geoname>
<geoname>
<toponymName>University of Alabama Birmingham Airport</toponymName>
<name>University of Alabama Birmingham Airport</name>
<lat>33.49733</lat>
<lng>-86.81471</lng>
<geonameId>4095094</geonameId>
<countryCode>US</countryCode>
<countryName>United States</countryName>
<fcl>S</fcl>
<fcode>AIRP</fcode>
<fclName>spot, building, farm</fclName>
<fcodeName>airport</fcodeName>
<population/>
</geoname>
<geoname>
<toponymName>Birmingham Municipal City Police Airport</toponymName>
<name>Birmingham Municipal City Police Airport</name>
<lat>33.55844</lat>
<lng>-86.74582</lng>
<geonameId>4050003</geonameId>
<countryCode>US</countryCode>
<countryName>United States</countryName>
<fcl>S</fcl>
<fcode>AIRP</fcode>
<fclName>spot, building, farm</fclName>
<fcodeName>airport</fcodeName>
<population/>
</geoname>
<geoname>
<toponymName>City of Birmingham</toponymName>
<name>City of Birmingham</name>
<lat>42.54466</lat>
<lng>-83.21667</lng>
<geonameId>4986175</geonameId>
<countryCode>US</countryCode>
<countryName>United States</countryName>
<fcl>A</fcl>
<fcode>ADMD</fcode>
<fclName>country, state, region,...</fclName>
<fcodeName>administrative division</fcodeName>
<population>20103</population>
</geoname>
</geonames>
